language_code,language_name,latitude,longitude
1,Nyaki Nyaki ,-32.39094519,118.7550827
2,Ngurlu,,
3,Mardo,,
4,Naaguja,-28.1355411,114.7644712
5,Pindiini,-29.46595664,127.7662611
6,Wangkatja,-29.86593028,122.698712
7,Pijikala,,
8,Nangu,,
9,Najanaja,,
10,Nawurtu,,
11,Nankilakuthu,,
12,Martuyitha,,
13,Waljen,-29.231154,122.7229745
14,Marlba,,
15,Windaga,,
16,Ngoonooru,,
17,Byro Wajarri,,
18,Mileura Wajarri,,
19,Nharnu,,
20,Nyiyaparli Padupadu,,
21,Banyjima Padupadu,,
22,Ngarrka,,
23,Kurdun,,
24,Wangkatha,-29.77825242,121.9180727
25,Yirrakalan,,
26,Ngardi,,
27,Kakutu ,,
28,Ngulatu ,,
29,Widi,-28.82675757,116.721527
30,Badimaya,-28.59330827,117.1853249
31,Kuwarra,-28.1820317,120.3453645
32,Nangadadjara ,-28.68370166,124.8034463
33,Muliara,,
34,Wardal,,
35,Kalarku,-32.11021775,121.4875755
36,Wilyara,-26.79961161,120.4156881
37,Gula,-27.99046025,122.7020083
38,Marawa,-28.77151428,125.3463879
39,Mangula,,
40,Gurduwanga,-25.66881645,117.5473826
41,Birniridjara,,
42,Djalgandi,-27.64572816,122.973062
43,Mudalga,-27.75221032,123.6548741
44,Bunggura,-27.28614141,130.4633711
45,Wawula,-25.01014047,121.1196452
46,Ngadjumaya ,-32.32466432,123.7411955
47,Ngadawanga,-26.40174013,119.5797048
48,Tjupan,-27.11795547,120.5664224
49,Nakako,-27.22284277,128.5109142
50,Mangu,-25.57987993,119.7750311
51,Konin,,
52,Milamada,,
53,Nanadjara,-26.06406529,123.4876394
54,Ngaanyatjarra,-25.8004324,127.3534575
55,Widjandja,,
56,Wajarri ,-26.10023039,116.9930825
57,Wadiwangga,,
58,Kalaamaya,-30.26369153,119.0129788
59,Birdungu,,
60,Madoidja,,
61,Tjitijamba,,
62,Ngaatjatjarra,-25.08112519,128.5419926
63,Djungurdja,,
64,Wirdinya,-23.83364083,120.4708263
65,Nungara,-30.28873663,120.5950126
66,Nyiyaparli,-22.92418558,120.1964725
67,Kartujarra,-23.28296268,122.0625362
68,Kiyajarra,-23.51038415,125.9526596
69,Banyjima,-22.74313267,118.3730032
70,Putijarra,-26.55892906,120.9083972
71,Palyku,-22.23908916,120.1608398
72,Dargudi,-23.06937606,121.0457235
73,Nyamal,-21.22018938,120.029409
74,Ibarga,-21.2417912,122.3086586
75,Maduwongga,-23.35091166,123.6684224
76,Widagari,-21.32798952,120.6393666
77,Nyangumarta,-20.47942077,122.0289589
78,Warnman,-22.2347888,123.0524111
79,Waringari,,
80,Karajarri,-18.81736968,122.3226214
81,Mangala,-19.63994907,123.9677472
82,Walmajarri,-19.46737317,126.1512518
83,Yulparija,-21.18399715,124.9545013
84,Kukatja,-20.4894475,127.0238704
85,Bunara,-20.70930386,129.0464562
86,Tjeraridjal,-30.43185108,123.7831818
87,Wadjiba,,
88,Nhugarn,-25.80499882,115.4762242
89,Ngurlipartu,-21.24327236,122.3284999
90,Walyirli,-20.05851321,121.8962409
91,Frazer Range,-32.175364,123.4744655
92,Bundjuwanga,-21.08759624,119.3971991
93,Pantikura,-22.55780241,118.5042538
94,Mijaranypa,-22.99968937,118.1452752
95,Yinhawangka ,-24.45577843,119.0782641
96,Murunitja,-30.30238579,126.0307175
97,Western Desert language,-26.33733782,127.1081071
98,Mount Margaret,,
99,Wirdjaragandja,-26.30487938,131.9110761
100,Njangadjadjara,-30.68216031,131.4921161
101,Tarpuntjari,,
102,Kurajarra,-22.9095914,122.3629167
103,Martu Wangka,,
104,Wangkajunga,-20.57646586,126.5032336
105,Juwaliny,-20.64372967,124.6987972
106,Pililuna,-19.66674636,127.6004663
107,Mirning,-31.29303042,128.1534933
108,Nyanyany,,
109,Nyardi,-18.62299162,125.2755039
110,Tjapanmay,-30.96389272,117.0541107
111,Nhanhagardi,-29.21759681,115.2749592
112,Witjaari,-31.7559692,116.2100524
113,Natingero,-29.37382415,118.3669993
114,Mandara,-23.36443632,119.2811247
115,Cheangwa language,-27.49908684,116.4015535
116,Kuntal,,
117,Norseman,-32.24150202,121.7626144
118,Wirangu,-31.53598772,133.5220741
119,Pintupi,-23.37009684,127.5817031
120,Yumu,,
121,Antekerrepenhe,-22.75390814,137.6206039
122,Kaytetye,-21.01987409,134.0695025
123,Alyawarr,-21.948371,135.5344463
124,Warlpiri,-20.43359561,131.0524093
125,Wakirti Warlpiri,-20.67209332,133.0945288
126,Wakaya,-20.15290759,136.1691472
127,Warlmanpa,-19.24962654,132.8710073
128,Warumungu,-19.60271266,134.5051818
129,Wambaya,-18.17305531,135.4310501
130,Ngalia,-29.19837154,129.4800333
131,Gurindji,-17.46211282,129.8075984
132,Pinkangarna,,
133,Jingulu,-17.35076527,133.7015129
134,Gunindirri,-17.66922781,136.8446522
135,Manu,,
136,Mudburra,-17.44031006,131.9096227
137,Gudanji,-16.980617,135.255653
138,Ngarinyman,-16.59038008,130.2551773
139,Akarre,-22.84250667,135.3629918
140,Lower Arrernte,-25.95457191,135.3928072
141,Kokatha,-29.65944536,133.4153573
142,Eastern Gurindji,-17.74853451,130.4059014
143,Eastern Mudburra,-17.55747282,131.9955177
144,Eastern Ngarinyman,-16.55603846,130.5117546
145,Karranga,-16.21455837,131.3606302
146,Kartangarurru,-19.25030503,130.4807254
147,Kuwarranyji,-16.72094035,132.3365622
148,Western Mudburra,-16.76736404,131.4545549
149,Wurlayi,-16.34158581,129.6478241
150,Ngardilypa,-19.6234758,129.7355985
151,Wawulya,-21.80471001,130.0438684
152,Yankunytjatjara,-26.62369368,132.2605529
153,Warnayaka,-19.73870488,130.703069
154,Yarlpiri,-20.48362875,132.1319749
155,Warrmarla,-20.50942118,129.7478641
156,Ngaliya,-21.80869809,131.1867126
157,Wenamba,-23.70842468,128.7492416
158,Nyiwanawu,-16.3392093,129.6823194
159,Pertame,,
160,Western Arrarnta,,
161,Antikarinya,-27.02978902,134.0166357
162,Pitjantjatjara,-25.66411506,130.0655038
163,Luritja,-24.94708497,133.1519028
164,Arrernte,-23.91276975,134.2609232
165,Anmatyerr,-22.25465276,133.2622529
166,Wanggamala,,
167,Wemba Wemba,-35.34122157,144.141905
168,Wiradjuri,-33.90918016,147.2573464
169,Pulaali,-31.48957662,141.7697941
170,Paakantyi ,-31.63317508,142.7779861
171,Wiljali,,
172,Thangkaali,-33.19407773,140.5364068
173,Guyinbaraay,-31.0837662,149.5999617
174,Wilyakali,-31.94801137,140.9901883
175,Pantyikali,-30.49041055,142.6846524
176,Wangaaypuwan,-31.4133463,145.8190896
177,Nhaawuparlku,-30.97050337,144.1661644
178,Yorta Yorta,-36.09392971,145.2635799
179,Wayilwan,-31.01810658,148.0268205
180,Wanyuparlku,-31.90096414,142.3424848
181,Ngiyampaa ,-31.27026424,146.704555
182,Gamilaraay,-29.72305819,149.8333724
183,Southern Anaiwan,-30.7098681,151.3524683
184,Kurnu,-29.75977753,145.3308111
185,Barranbinya,-29.78022934,146.2686559
186,Wiriyaraay,-29.11287083,150.6214094
187,Gambuwal,-28.61886109,151.4415609
188,Ngunawal ,-34.98029551,149.0870952
189,Kalili,-28.36614352,143.5314931
190,Budjari ,-28.43364116,145.2278033
191,Muruwari ,-29.06817925,145.7980905
192,Guwamu,-28.41455229,147.7249188
193,Bigambul,-28.14139289,150.174827
194,Guyambal,-29.34051588,151.2486019
195,Geynyan,-28.18347613,152.1836091
196,Gunggari,-27.36809848,146.9602124
197,Kogai,-27.42337859,147.9422236
198,Gawambaraay,-28.6219307,150.3248956
199,Wadi Wadi,-35.0866431,143.3704571
200,Barunggam,-26.79506641,150.4467729
201,Giabal,-27.69038241,151.7555301
202,Margany ,-27.27294762,144.5774105
203,Gunya,-26.78474267,146.1613436
204,Mandandanji,-27.01765413,148.5017274
205,Wadjalang ,-25.63531758,145.2718665
206,Nguri,-25.60232388,147.8023772
207,Paaruntyi,-29.45822263,144.3145896
208,Parrintyi,-32.81793804,143.5271058
209,Kungakuri,-29.10545282,146.3952077
210,Barababaraba,-35.6737029,144.6113764
211,Nuntukuri,-29.87173109,145.9524418
212,Purukuri,-29.72039488,144.2664624
213,Thinuntu,-29.83928282,146.3256832
214,Kuntakuri,-29.29726957,146.9078775
215,Yuwaalayaay,-29.60440833,147.5403442
216,Waalaraay,,
217,Muringam,,
218,Weraeria,,
219,Jeithi,-35.51201017,145.9813226
220,Milpulo,-31.80848785,142.4141657
221,Marrawarra,-33.6663629,141.4486458
222,Kureinji,-34.23140408,142.4216531
223,Wirriwirri,,
224,Southern Paakantyi,-32.72158778,142.5650997
225,Canberra language,-35.47495744,148.9984957
226,Northern Dharawal,,
227,Northern Anaiwan,-30.12755232,151.4762715
228,Wirraayaraay,-32.09839624,148.58653
229,Wirraay-wirraay,-28.21952692,148.197097
230,Wadi Wadi,,
231,Burabura,,
232,Himberrong,,
233,Yitha Yitha,-33.87318608,143.9409128
234,Inuwon,,
235,Galali,,
236,Mutti Mutti ,-33.75315605,142.7217453
237,Nari Nari,-34.41868713,144.4000271
238,Geawegal,-32.51979857,151.211697
239,Yaygirr,-29.68672297,153.1878436
240,Yugambal,-29.75744124,151.0501143
241,Bundjalung,-29.25126135,153.0751537
242,Arakwal,,
243,Gidhabal,-28.50105723,152.3203455
244,Galibal,-28.53326435,152.866814
245,Wiyabal,-29.30802878,152.2282249
246,Dinggabal,-28.73775281,152.2844378
247,Wahlubal,-28.88761184,152.5079219
248,Yugambeh,-28.09452769,152.981256
249,Minyangbal,-28.55438964,153.4981194
250,Jandai,-27.77289008,153.3991044
251,Warrimay,-32.48684113,151.9969464
252,Duungidjawu,-26.97314864,152.5741404
253,Moondjan,-27.47215729,153.4690786
254,Ngoera,-27.0690521,152.3593426
255,Yugara,-27.70854514,152.5468407
256,Buyibara,-27.22108106,152.9281923
257,Dalla,-26.77542365,152.6684343
258,Gowar,-27.16768654,153.4003411
259,Djagunda,-26.05034841,150.8351369
260,Wakka Wakka,-26.45133412,151.903029
261,Gubbi Gubbi,-26.0056033,152.6675373
262,Birrbay,-31.64695142,152.134016
263,Butchulla,-25.33722004,153.0328201
264,Yiman,-25.58902937,149.5770984
265,Gooreng Gooreng,-24.90480069,151.790315
266,Taribelang,-24.80733136,152.0388992
267,Gungabula,-25.59957324,148.6437252
268,Goeng Goeng,-24.26688582,151.6816877
269,Bidjara ,-24.90318659,147.1213069
270,Garingbal,-23.33016135,149.1337003
271,Wadjigu,-24.80852364,148.5733526
272,Ngaku,-31.06953469,152.9340119
273,Gangulu,-24.18606975,150.151432
274,Tulua,-24.38985217,150.9990002
275,Bayali,-23.64369074,150.8852368
276,Yagalingu,-23.156858,146.6329386
277,Gayiri,-23.79398017,147.8977311
278,Gabulbarra,-22.86863759,148.7252279
279,Dharumbal,-22.71568351,150.0600456
280,Wangan,-22.79716328,147.6085897
281,Baradha,-21.98238387,148.9252572
282,Guwinmal,-22.2796681,149.7961573
283,Ngambaa,-30.81513541,152.8904795
284,Miyan,-21.812523,146.1838164
285,Yambina,-22.31402258,147.4752732
286,Yangga,-20.92842179,147.2562885
287,Barna,-22.080577,148.198529
288,Yuwibara,,
289,Yilba,-20.76682112,146.0479805
290,Biri,-20.50810089,147.9886074
291,Wiri,-21.29857522,148.7037816
292,Giya,-20.40181799,148.4629209
293,Ngaro,-20.29547471,148.9347367
294,Dhanggati ,-30.90641545,152.4169227
295,Gudjal,-19.70754326,145.4359956
296,Bindal,-19.56356855,147.1105586
297,Yuru,-19.82716687,147.6745532
298,Yetimarala,-22.8938418,149.4836174
299,Ganulu,-23.65544718,149.0109623
300,Mandalgu,-24.46598501,149.3824338
301,Yugarabul,-27.27760979,153.0252578
302,Gathang,-31.98263684,152.4155795
303,Ngarbal,-29.5277933,151.7814606
304,Nulla Nulla,,
305,Gumbaynggirr,-30.08764301,152.4456876
306,Burrgati,-30.42236063,151.9407368
307,Baryulgil,,
308,Birihn,-29.0479589,152.8588681
309,Casino language,-28.85403056,152.9873744
310,Warwick Dialect,,
311,Nyangbal,-28.92150486,153.4217926
312,Manaldjahli,-28.12654313,152.9146985
313,Nerang Creek,-28.08259432,153.2407725
314,Nganduwal,-28.35155366,153.303607
315,Ngarahgwal,-27.88614455,153.327907
316,Baanbay,-30.05901234,152.1110868
317,Wehlubal,-29.22442551,152.5517802
318,Jarowair,-27.21168959,151.6777654
319,Wapabara,-23.19138657,150.9668473
320,Rakiwara,-23.06916223,150.7806859
321,Karunbara,-23.53207334,150.1000323
322,Gambalamam,-30.37844644,152.6714792
323,Turubul,-27.50740343,153.0519336
324,Dungibara,-27.20096995,152.5522455
325,Garumngar,-27.35303324,152.6951351
326,Wuli Wuli,-25.30333447,150.6355846
327,Yunggaya,-29.46378932,153.2157736
328,Nalbo,-26.76927823,152.885895
329,Marbal,-29.11350479,151.8740972
330,Ngarabal,-29.48567462,152.6828852
331,Baddala,,
332,Undanbi,,
333,Guringay,-32.51345793,151.699335
334,Wudjebal,,
335,Nymboidan,,
336,Yirraygirr,,
337,Wangkamanha ,-24.33080067,137.4244147
338,Waluwarra,-21.76218641,138.4285574
339,Wonganya,,
340,Ayerrerenge,-21.39381083,137.4154269
341,Bularnu,-20.65668866,138.2747458
342,Kalkadoon,-20.88651298,139.8900199
343,Indjilandji,-19.32705207,137.4623768
344,Wakabunga,-19.53889197,139.0648189
345,Mayi-Thakurti,-19.94687087,140.6895015
346,Wunumara,-20.91311258,141.8532552
347,Ngawun,-19.80268514,141.9628637
348,Midjamba,,
349,Nguburinji,-18.53363767,139.0357774
350,Ulaolinya,,
351,Mayi-yapi,-19.07564608,140.4472208
352,Mbara,-19.84989287,143.3951331
353,Balgalu,,
354,Waanyi,-18.31324164,137.6208706
355,Mayi-kutuna,-19.12082465,139.8962502
356,Mayi-kulan,-18.78035758,141.8124153
357,Mingin,-18.022513,139.5527314
358,Kalibamu,,
359,Kukatj,-18.13210146,140.3651155
360,Gundara,-16.05243479,141.8155884
361,Kunkalanya,-23.6376703,139.2879856
362,Ganggalidda,,
363,Gkuthaarn,-17.36881657,141.1150622
364,Garandi,,
365,Kurtjar,-16.74729771,141.4175524
366,Yukulta ,-17.34123181,138.7513171
367,Kayardild,-17.03057864,139.4892236
368,Walangama,-17.88573416,141.9347315
369,Yangkaal,-16.90490667,138.9811434
370,Lardil,-16.56431398,139.4588913
371,Ogerliga,,
372,Rakaya,-23.42426015,140.1372183
373,Ngulupulu,-24.05636975,139.8175719
374,Parnkarra,-21.26027755,138.8104555
375,Dhidhani,-20.47735321,138.262116
376,Kapula,-22.13275818,138.5961317
377,Mayi-yali,-18.94153793,139.7478626
378,Marrago,-18.2705876,140.1666418
379,Bundjil,-20.04799721,146.3134247
380,Jangrala,-17.85144584,138.682737
381,Rangwa,,
382,Kok Narr,,
383,Wangka-yutjurru,-22.88173627,138.5657301
384,Kok Nhang,,
385,Baringkirri,,
386,Indjiladji,,
387,Lanima,,
388,Pitta Pitta,-22.62842257,139.7247443
389,Ringu Ringu,-22.87928251,140.2647726
390,Yalarnnga,-21.8218442,139.7132708
391,Yanda,-22.08473631,140.7388174
392,Goa,-22.03693923,142.3193515
393,Yawuru,-17.94389329,122.6253004
394,Warrwa,-17.27598142,124.013626
395,Walki,-17.84614056,127.0630252
396,Jaru,-18.51728972,128.2275775
397,Nyul Nyul,-17.02802875,122.7057293
398,Unggumi,-17.08878137,124.8691177
399,Bardi,-16.66816392,122.9022574
400,Jawi,-16.4424157,123.2675777
401,Worrorra,-15.62132645,124.8758709
402,Ngarinyin,-16.00384906,126.0054329
403,Guwij,-15.28945962,127.0496627
404,Jugun,-17.78656019,122.4450455
405,Gija ,-17.4239872,127.3910508
406,Wanyjirra,-18.10586567,129.7059148
407,Wunambal,-14.87939571,125.4637639
408,Andedja,-17.34859646,126.1280783
409,Waladjangari,,
410,Munumburu,-15.27784587,127.5277025
411,Wolyamidi,-15.63688402,127.3644225
412,Bemba,,
413,Arawari,,
414,Miriwoong ,-15.88629735,128.867674
415,Nyikina,-18.25939894,124.0608413
416,Malngin,-17.23515381,129.3537164
417,Wenambal,,
418,Yiiji,-15.13900438,127.9888676
419,Kuluwarrang,-16.37711391,127.9778658
420,Jiyil,-17.21705221,130.5393968
421,Wilawila,-15.0779801,127.0231169
422,Gunin,-14.62684779,127.6671493
423,Arnga,,
424,Gajirrawoong,-15.29300696,129.2746936
425,Mariung,,
426,Gambera,-14.21811415,126.3424611
427,Ngumbarl,-17.51518092,122.4915047
428,Gingara,,
429,Galamburu,,
430,Wirngir,,
431,Worla,-16.42768619,127.21894
432,Miwa,-14.12730414,127.0418156
433,Walar,,
434,Manungu,,
435,Djerag,,
436,Julbayi,-18.19674378,122.5361115
437,Umida,-16.32278166,123.8597133
438,Bunuba,-17.72474079,125.6051687
439,Doolboong,-15.03641569,128.4571656
440,Wawarl,-18.27033506,127.8501016
441,Ngarnawu,-16.18764992,127.2888469
442,Yawijibaya,-16.03065673,124.1487546
443,Marangan,-17.9700937,122.9971836
444,Unggarrangu,-16.69360094,123.6706818
445,Winjarumi,-15.30243643,124.259401
446,Ginan,,
447,Barunjin,,
448,Gulunggulu,,
449,Gooniyandi,-18.59096991,126.179024
450,Mailnga,,
451,Wulamban,,
452,Bayimbarr,-15.63267112,127.9739165
453,Giwajbem,-16.30951329,128.2513676
454,Andajin,,
455,Eastern Bunuba,,
456,Western Bunuba,,
457,Baard,,
458,Nyininy,-18.06933983,128.5856727
459,Jabirr Jabirr,-17.23238857,122.5274129
460,Nimanburru,-17.26473981,123.1341581
461,Narungga,-34.48186913,137.5910412
462,Adnyamathanha,-30.35021173,138.8825771
463,Pirlatapa,-29.83938464,140.1004248
464,Wadigali,-29.26078824,141.2096483
465,Arabana,-28.4169104,136.0837212
466,Dhirari,-28.59828909,137.7748382
467,Karenggapa,-29.17570723,142.66888
468,Gungadidji,-26.35189074,142.0252753
469,Dieri,-28.22809102,139.0584151
470,Yandruwandha,-28.32584186,140.3918776
471,Dhiraila,-28.01441455,142.2386919
472,Nauo ,-33.70399043,135.439736
473,Mambangurra,-28.6016663,141.7630213
474,Waidjinga,,
475,Ngamini,-26.9437721,138.9611802
476,Yawarrawarrka,-26.53440658,140.4391338
477,Wangkumara,-27.57048538,141.8854184
478,Punthamara,-27.34291427,143.5024351
479,Wangkangurru,-25.88626857,137.1817585
480,Karangura,-25.97487493,138.7338012
481,Kunandaburi,-26.63472562,142.5938623
482,Kaurna,-34.42714719,138.4084662
483,Nanduwara,,
484,Ngandangara,-26.82346778,143.2389399
485,Yarluyandi,-25.90446432,139.4987276
486,Karanya,-24.3855385,139.8671121
487,Marula,-25.35589258,141.6236496
488,Mithaka,-25.27295934,139.7382964
489,Karuwali,-24.9599361,141.0306774
490,Pirriya,-25.49161592,142.4902412
491,Gulumali,,
492,Kungkari,-24.53831202,144.2751922
493,Wadjabangai,-24.10558959,145.8108102
494,Nukunu,-32.8178302,138.0694391
495,Maiawali,-23.41919493,141.5875433
496,Iningai,-23.08563188,144.8746802
497,Yirandali,-21.1570842,144.2829284
498,Bidjara,-28.38567517,143.0055259
499,Yandjibara,-24.65633353,145.6108717
500,Parlpamardramardra,-27.51328333,141.2440087
501,Nhirrpi,-26.95530463,140.8402469
502,Matja,-27.32275325,139.9625406
503,Ngananhina,-26.33916333,140.960083
504,Marunuda,-24.93803946,139.5024115
505,Ngadjuri,-32.93016066,139.0812316
506,Midlaliri,-29.18670533,135.3837715
507,Mikiri-nganha,-25.73018833,137.1438555
508,Wangkakupa,-28.91430688,136.1604381
509,Piltapalta,-27.72217266,136.025876
510,Wangkatyaka,-27.49453191,137.5854732
511,Wailpi,-30.94840196,138.5829907
512,Yarrumada,-25.97429989,143.8487024
513,Minkabari,-28.87314392,142.6017432
514,Mundanbara,,
515,Parnkalla,-32.6883657,136.8100904
516,Ngura Wota,,
517,Kadli,,
518,Malintji,-23.53445817,142.9528968
519,Jura,,
520,Parpagunu,,
521,Ngurunta,-30.73320256,140.4828535
522,Parlpakurnu,-26.2572411,143.0398934
523,Eastern Wangkangurru,,
524,Northern Dhirari,,
525,Yadliawara,-31.09778577,139.8040762
526,Southern Dhirari,,
527,Malyangapa,-30.55622095,141.5672758
528,Kuyani,-29.99929809,137.9422167
529,Nangor,,
530,Kuwema,-12.85739216,130.425114
531,Gamalangga,,
532,Liyagawumirr,,
533,Marri Ngarr,-14.21069418,129.8507263
534,Guyamirrilili,,
535,Ritharrŋu,-12.97618751,135.3967658
536,Gulunggurr,,
537,Wägilak,,
538,Yalukal,,
539,Liyagalawumirr,,
540,Guyula,,
541,Pungupungu,-13.37733792,130.4467343
542,Lurlmarangu,,
543,Madarrpa,,
544,Marra,-15.04125841,135.4116298
545,Galwanuk,,
546,Ngaladharr,,
547,Budalpudal,,
548,Djambarrpuyngu,,
549,Dhuwaya,-12.2661061,136.8700978
550,Bilin,,
551,Birdingal,,
552,Birrkili,,
553,Dholpuyngu,,
554,Dhäpuyngu,,
555,Dätiwuy,,
556,Ding Ding,,
557,Djamundja,,
558,Djirin,,
559,Maydyara ,,
560,Malardordo,,
561,Mandatja,,
562,Manydjalpuyngu,,
563,Mandjikai,,
564,Marrangu,,
565,Marrungun,,
566,Miliwuru,,
567,Murru,,
568,Narrkala,,
569,Raijang,,
570,Ralwia,,
571,Ngaymil,,
572,Nungudulbuy,,
573,Djarrwark,,
574,Murngin,,
575,Dhay'yi,-13.37364795,135.7620122
576,Malarra,,
577,Matngala,-13.78862133,130.4336463
578,Warndarrang,-15.04294182,135.3450616
579,Ngarnka,-16.45167137,134.8262768
580,Dhurili,,
581,Gupapuyngu,,
582,Bunanatjini,,
583,Dhamalamirr,,
584,Gigi,,
585,Nunydjirrpi,,
586,Wubuy ,-13.8698099,135.5886143
587,Bararrngu,,
588,Maranunggu,-13.75854954,130.271628
589,Golpa,,
590,Warramirri,,
591,Wurruḻuḻ,,
592,Wurunggugu,,
593,Wangurri,,
594,Yithuwa,,
595,Manggalili,,
596,Binbinka,-16.36136512,136.0457131
597,Galpu,,
598,Makarrwanhalmirr,,
599,Gungarakayn,-13.23326924,130.825209
600,Rirratjingu,,
601,Gumatj,,
602,Marrakulu,,
603,Djarn,,
604,Dhalwangu,,
605,Bilamandyi,,
606,Djapu,,
607,Marradhanggimirr,,
608,Lamami,,
609,Gobadeindamirr,,
610,Dhiyakuy,,
611,Balamunu,,
612,Emmi,-13.51678358,130.1162368
613,Galawlwan,,
614,Anindilyakwa,-13.9310889,136.5853882
615,Walu,-15.72119237,137.0276688
616,Yanyula,-15.80208107,136.8078611
617,Nyangga,,
618,Garrwa,-16.85677792,137.2737774
619,Nalawgi,,
620,Ngan'gi,-14.2283974,130.3642618
621,Murrinh-kura,-14.71590049,129.946497
622,Murrinhdiminin,-14.40514018,129.8169491
623,Maramanindji,-13.97056679,130.4182039
624,Ngan'gimerri,-14.00459251,130.6119063
625,Marri Tjevin,-13.89279577,129.8490531
626,Marri Amu,-13.81167582,129.8100059
627,Magati Ke,-14.08764363,129.715299
628,Mariyedi,-13.72102164,130.0513079
629,Marrabanggu,,
630,Marranumbu,,
631,Ngan-wirlang,,
632,Djimbilirri,,
633,Kerniyn'mi,-13.6537488,133.5850506
634,Ngen'giwumirri,-14.24563928,130.4613106
635,Gumunggurdu,,
636,Kundedjnjenghmi,-12.67879701,133.4294768
637,Gunguluwala,,
638,Kuninjku,-12.26766152,134.0414224
639,Gurrigurri,,
640,Galduyh,-13.56560435,134.3888624
641,Letpurrirt,-14.15531425,132.2538075
642,Ngarlahmi,-14.08836479,132.3599592
643,Ngorrkgowo,-13.45184228,131.6779507
644,Ngardawuli,-11.28981651,131.932295
645,Jaminjung,-15.15402829,130.3903023
646,Urrirrk,-11.91768043,132.648685
647,Wurdang,-11.28706594,131.9235375
648,Gidjurra,-12.13275273,132.9371945
649,Manangkarri,-11.55548091,133.1725261
650,Ilgar,-11.07092598,132.9074224
651,Burdinmanduwij,-11.3102845,131.9291184
652,Bininj Gun-wok ,-12.57799587,133.5566359
653,Garig,-11.24584451,132.4184072
654,Mukngirru,-12.92760996,130.5374669
655,Ngaliwurru,-16.07262772,130.5423272
656,Gun-narda,-12.12789527,134.6619213
657,Gun-narta,-12.1071313,134.4883778
658,Dhangu,-12.4269844,136.6073256
659,Golumala,,
660,Buralka,,
661,Dhamarrangdji,,
662,Nyekuymirri,,
663,Wutjara,,
664,Dhuwal,-12.71246521,136.0098575
665,Dhuwala,-12.65404515,135.9581203
666,Yilngali,,
667,Tiwi,-11.56336122,130.7597491
668,Munyuku,,
669,Gumadir,-12.4811261,133.5636061
670,Djangu,-12.14740282,136.4213048
671,Mildjingi,,
672,Airiman,,
673,Djadiwitjibi,,
674,Wora,,
675,Munggurrpi,,
676,Dabi,,
677,Larrakia,-12.51763347,130.8413996
678,Walmapuy,,
679,Nhangu,-11.85322093,135.7022074
680,Gurriyindi,,
681,Bindararr,,
682,Menthajangal,,
683,Marranj,-13.65277213,130.0736751
684,Ngurruwula,,
685,Buwarrpuwarr,,
686,Mininggiri,,
687,Manggurra,,
688,Malak Malak,-13.54877304,130.5524143
689,Giimbiyu,-12.48082402,133.0564117
690,Muralidban,-12.24119972,134.1824059
691,Ngunbudj,,
692,Wandangbag,-12.31267846,132.9782492
693,Gonbudj,-12.45343626,132.1564989
694,Meritjamui,,
695,Giyug,-13.16822762,130.0535206
696,Karaman,,
697,Bararrpararr,,
698,Ngalarrunga,-15.90087368,133.1973215
699,Yolngu Matha,,
700,Nangiblerbi,,
701,Warray,-13.16324174,131.2538162
702,Yunggor,-13.59730024,130.4134057
703,Wagiman,-14.01217225,131.1693589
704,Nungali,-15.59017843,130.8570933
705,Wuna,-12.47516724,131.3729719
706,Murrinh-patha,-14.74734635,130.0034642
707,Djowei,,
708,Batjamalh,-13.20884001,130.2740404
709,Wulwulam,-13.6417138,132.0546321
710,Kamu,-13.61255822,130.7784577
711,Garama,,
712,Wardaman,-15.35692806,131.5269975
713,Bilinarra,-16.96685957,130.7449655
714,Wurrugu,-11.36143458,132.0931236
715,Uwinymil,-13.31152048,131.7754804
716,Dagoman,-14.44100004,131.877598
717,Iwaidja,-11.61294718,132.6962202
718,Ngaduk,-12.21167799,132.5960301
719,Ngomburr,-12.79362392,132.129585
720,Limilngan,-12.52560183,131.7240108
721,Bugurnidja,-12.76591097,132.7021295
722,Mbukarla,-12.98300656,132.3665819
723,Mayali,-14.08032662,132.4536947
724,Marrku,-11.15766329,132.56024
725,Oitbi,,
726,Amurdak,-11.95028736,132.8736123
727,Wareidbug,,
728,Nambuguja,,
729,Alura,,
730,Gaagudju,-12.43407733,132.6716085
731,Wada,-12.46989857,132.5636539
732,Widjilg ,,
733,Mengerrdji,-12.35097462,133.0237759
734,Erre,-12.42608346,133.0652285
735,Gundudj,,
736,Jawoyn,-13.89730041,133.0384608
737,Jalakuru,,
738,Wengei,,
739,Menthe,-13.63766777,129.9206731
740,Dalabon,-13.3162555,134.029309
741,Mawng,-11.81389825,133.3640077
742,Kunwinjku,-12.1735063,133.4827345
743,Urningangk,-12.54571577,133.0564923
744,Yangman,-15.41429146,132.4994828
745,Kunbarlang,-11.93224616,133.8938911
746,Marrithiyel,-13.83464875,130.0129352
747,Kune,-12.3980068,134.3865989
748,Gundjeihmi,-12.92586056,132.8745604
749,Yan-nhangu,-12.00767836,135.2364169
750,Rembarrnga,-13.23102855,134.4541081
751,Ndjébbana,-12.1555482,134.2743826
752,Gurr-goni,-12.22841313,134.2867064
753,Ngalkbon,,
754,Ngalakgan,-14.28399246,134.2707529
755,Mangarrayi,-14.89124659,133.6191545
756,Walamangu,,
757,Ngan'gikurunggurr,-14.18557096,130.1037173
758,Nakkara,-12.08445713,134.3642204
759,Gun-nartpa,-12.21920382,134.5502503
760,Burarra,-12.16177075,134.5807096
761,Ganhalpuyngu,,
762,Djarawala,,
763,Yugul,-14.74623675,134.8307438
764,Gadjalivia,,
765,Manyarring,,
766,Wubulkarra,,
767,Buan,,
768,Marridan,-13.99933726,130.1768236
769,Ngandi,-14.00859488,134.9063889
770,Galwa,,
771,Alawa,-15.52367382,134.4795864
772, Wulkara,,
773,Balmbi,,
774,Djinang,-12.33789406,134.8634978
775,Wurlaki,,
776,Dhaygurrgurr,,
777,Djinba,-12.76185278,135.0045812
778,Malarbardjuradj,,
779,Wilingura,-15.70856193,135.9306831
780,Torres Strait Creole,,
781,Broome Pearling Lugger Pidgin,-17.92995502,122.2989006
782,Aboriginal English,,
783,Warki,-35.46000501,138.8509463
784,Ngawadj,-34.22446983,140.2256295
785,Tanganekald,-36.08940248,139.5690972
786,Yirawirung,-34.26707911,140.5328348
787,Bungandidj,-37.22525172,140.5117485
788,Meintangk,,
789,Bindjali ,-36.42292767,140.4916351
790,Mardidjali,-36.96779421,141.6431409
791,Wergaia,-35.8685197,142.1207357
792,Ngintait,-34.37300823,141.1084427
793,Yuyu,-34.09882318,140.9993276
794,Ramindjeri,-35.46073476,138.7112493
795,Dhauwurd Wurrung,-38.15561291,141.5396585
796,Warga Warga,,
797,Kulin,,
798,Djadjala,-35.56047811,141.6828374
799,Latji Latji,,
800,Jari Jari,-34.76608104,141.7282794
801,Keerray Woorroong,-38.0397521,142.8801266
802,Djab Wurrung,-37.77421504,142.3366299
803,Knenknenwurrung,-37.06668978,142.8594496
804,Jardwadjali,-36.72332526,142.5688852
805,Dadi Dadi,-34.77763457,142.8384634
806,Wathaurong,-37.83817245,143.9211996
807,Portaulun,-35.35171999,139.2042652
808,Gulidjan,-38.22820887,143.6955975
809,Kurung,,
810,Dja Dja Wurrung,-36.79561055,143.6748529
811,Lewurung,,
812,Weki Weki,-35.0367157,143.3622313
813,Boonwurrung,-38.45956946,145.5753229
814,Woiwurrung,-37.74220325,145.2932175
815,Taungurung,-37.03159788,145.4797207
816,Jabulajabula ,-35.71096376,145.1071433
817,Brataualung,-38.71577707,146.4477985
818,Ngaralda,-35.01894864,139.2284113
819,Bangerang,,
820,Brayakaulung,-37.87250838,146.579627
821,Tatungalung,-38.08757182,147.4409116
822,Gundungerre ,-36.72357547,147.5218959
823,Dhudhuroa,-36.36416851,147.6925952
824,Brabralung,-37.49857408,147.3284126
825,Ngarigu ,-35.90218835,148.7673745
826,Walgalu,-35.69606229,148.6050824
827,Krauatungalang,-37.59315288,148.3379129
828,Bidawal,-37.38307107,149.0529849
829,Peramangk,-34.86256714,138.8922004
830,Guyangal,,
831,Dyirringan,-36.69382882,149.7215944
832,Thawa,-37.16713269,149.5988333
833,Dhurga,-35.61911449,150.094706
834,Walbunja,-35.82392524,149.8854398
835,Wandandian,,
836,Dharamba,-35.15101581,150.3412006
837,Gurungada,,
838,Southern Dharawal,,
839,Dharawal ,-34.56576533,150.6794074
840,Ngangaruku,-34.8315374,139.4514003
841,Gundungurra ,-34.39757906,149.7244915
842,Eora,-33.77772455,151.1754973
843,Wonnarua ,-32.23955799,150.9248291
844,Dharug ,-33.88957787,150.0484124
845,Darkinyung,-33.03511724,150.8287049
846,Awabakal,-33.05505807,151.5266736
847,Yuin,,
848,Gunai ,-37.97511,146.9726247
849,Ngarrindjeri,-35.75823067,139.2691002
850,Ngayawang,-34.40329243,139.501603
851,Buibadjali,-35.71487213,142.4199042
852,Gadubanud,-38.61824264,143.6440107
853,Wichintunga,,
854,Djargurd Wurrong,-38.17535396,143.2568156
855,Gaiwurrung,-38.02406387,142.3483051
856,Koornkopanoot,-38.16991503,142.3290197
857,Moatatunga,,
858,Bi:gwurrung,-38.29384535,142.2743071
859,Pinejunga,,
860,Taloinjunga,,
861,Yaraldi,-35.45131812,139.3755135
862,Wirngilgnad Dhalinanong,-38.4881774,143.021138
863,Wulluwurrung,-37.84321112,141.634233
864,Koort-kirrup,,
865,Ngurai-illamwurrung,-36.47280966,145.0816926
866,Jagwadjali,-36.32162554,142.6846621
867,Biwadjali,-36.30586137,141.7856832
868,Pirtpirtwurrung,-37.41394871,142.7988146
869,Nundadjali,-37.3893342,141.8004833
870,Wotjobaluk,-35.72406138,142.9995632
871,Waywurru ,,
872,Ngarkat,-35.36113555,140.3522447
873,Minjambuta,-36.81018372,146.6341949
874,Nulit,,
875,Wathurung,,
876,Ngarad,,
877,Jupagalk,,
878,Djilamatang,,
879,Broken Bay language,-33.50570358,151.2190358
880,Bangerang ,,
881,Southern Ngarigu,,
882,Northern Tasmanian,-41.3250503,146.0335821
883,South-western Tasmanian,-43.40036118,146.0712872
884,Robbins Island Tasmanian,-40.66698251,144.9557269
885,Circular Head Tasmanian,-40.85677608,145.3737333
886,Port Sorell Tasmanian,-41.27554866,146.5680726
887,Piper River Tasmanian,-41.13581009,147.4024295
888,Little Swanport Tasmanian,-42.44063808,147.9564732
889,palawa kani,,
890,Oyster Bay Tasmanian,-42.50356683,147.7687148
891,North-western Tasmanian,-41.24561427,144.872146
892,North Midlands Tasmanian,-41.66769926,147.1881334
893,South-eastern Tasmanian,-43.2255444,146.9977361
894,Macquarie Harbour Tasmanian,,
895,Ben Lomond,,
896,Big River Tasmanian,-42.42506146,146.7588803
897,Cape Portland Tasmanian,-41.08251068,148.0593228
898,Bibulman,-34.41874914,115.9466385
899,Ballardong,-31.55554595,117.1316871
900,Yuat,-30.85744442,115.9193612
901,Amangu,-29.47328681,115.5298235
902,Watjanti,-28.10047626,114.687957
903,Nhanda ,-26.72458627,113.9743977
904,Daguda,-27.16965702,114.799097
905,Damala,,
906,Buluguda,-26.05703503,113.8052951
907,Malgana,-26.36688969,114.3834971
908,Yingkarta,-24.94564878,114.5358185
909,Mirnang ,-34.72182444,117.564632
910,Maya,-24.42195415,114.3320813
911,Tharrkari,-23.75654662,114.9619856
912,Warriyangga,-24.62970191,115.7719536
913,Bayungu,-23.2094939,113.9520999
914,Burduna,-23.04794101,115.1152077
915,Thiin,-23.71156576,116.6801157
916,Thalanyji,-22.52288555,114.940864
917,Jiwarli,-23.49730603,115.900919
918,Wardandi,-33.85692942,115.4378526
919,Nhuwala,-21.53883663,115.6860132
920,Yarnarri,,
921,Jurruru,-23.23202179,116.9072218
922,Binigura ,-23.03055906,116.372795
923,Martuthunira,-21.40548435,116.4508797
924,Kurrama,-22.3454093,117.1252561
925,Yindjibarndi,-21.73766145,117.8681774
926,Ngarluma,-20.98223936,117.5563976
927,Kariyarra,-20.87080495,118.4788129
928,Kaniyang,-33.98415512,116.6983021
929,Ngarla,-20.26323035,119.7052335
930,Noongar ,-32.92213484,117.8400129
931,Northern Yingkarta,,
932,Pulinya,,
933,Janadjina,-24.73553744,118.2674192
934,Watjanmay,-30.42931001,119.9874438
935,Southern Yingkarta,-25.70595009,114.9368643
936,Yapurarra,-20.67151533,116.6867782
937,Djungundja,,
938,Jadira,-21.84552987,116.1884783
939,Goreng ,-34.01109176,118.4408161
940,Jindijind,,
941,Malygaru,,
942,Nokaan,-27.24344484,115.1680319
943,Wirlu,,
944,Yinigudira,,
945,Jaburu,,
946,West Ngarluma,,
947,East Ngarluma,,
948,Yindjibarndi Padupadu,,
949,Ngarluma Padupadu,,
950,Bindjareb ,-32.89836213,115.9165791
951,Yinyjiwarnti Kurrama,,
952,Mijarranypa,,
953,Marntartka,,
954,Ngamangamara,,
955,Djiraly,,
956,Kongal-marawar,,
957,Kongal-boyal,,
958,Purnukundi,,
959,Marndanjingu,,
960,Wilman,-33.14304707,117.1282318
961,Jaurnmalu,,
962,Wudjari,-33.66707988,120.5919096
963,Wuthathi,-12.02213466,143.0671171
964,Koko Kai-kai,-16.2473143,145.4505726
965,Uw Oykangand,-15.59967224,142.0212186
966,Tjapatja,,
967,Kuku Kulunggur,-16.43240635,145.3437055
968,Kuku Wakura,-16.67006814,144.2164252
969,Djabugay,-16.73716849,145.5084543
970,Areba,-17.00962719,142.2228132
971,Kuku Djangun ,-17.10588502,144.9687918
972,Ngu'rand,,
973,Bulway,-17.00446183,145.5623524
974,Yirrgay,-16.94123227,145.7334269
975,Binggu,,
976,Narkali,,
977,Gunggay,-16.96176375,145.9148146
978,Mbabaram,-17.26495596,145.0777395
979,Djandjandji,,
980,Yidinj,-17.08708535,145.7656033
981,Waribarra Mamu,-17.50478111,145.7717764
982,Madjay,-17.26297599,145.8569904
983,Luthigh,-11.92849576,142.1165035
984,Njirma,,
985,Ngadjon ,-17.36377694,145.7047546
986,Mamu,-17.63998402,145.7485185
987,Djirbal,-17.74022656,145.661334
988,Djiru,-17.90722366,146.0521375
989,Tagalaka,-18.19732763,142.9612272
990,Gulngay,-17.96177304,145.8525333
991,Girramay,-18.11003035,145.7326329
992,Gugu Badhun,-18.69034079,145.2329872
993,Nyawaygi,-19.14735632,146.3919534
994,Unjadi,,
995,Yanga,-19.08582079,143.4654884
996,Agwamin,-17.67566995,144.1668057
997,Wamin,-18.78142258,144.1411973
998,Warrungu,-18.03403673,145.2397321
999,Warrgamay,-18.43750867,145.7979359
1000,Wulgurukaba,-18.86501399,146.6433943
1001,Mbarrumbathama,-14.88162386,143.8342833
1002,Bindaga,,
1003,Ganganda,,
1004,Gunggarbara,,
1005,Yangathimri,-12.01992611,141.871148
1006,Madhirdirl,,
1007,Mbo'aru,,
1008,Ug Windjila,,
1009,Waigur,,
1010,Walboram,,
1011,Walmbarddha,,
1012,Wulbudjibur,,
1013,Jabunbarra Jirrbal,-17.80428699,145.8399655
1014,Teppathiggi,-12.07668662,142.0727087
1015,Walmalbarra,-18.05899607,145.9955792
1016,Jirribarra Mamu,-17.61227117,146.0514407
1017,Gambilbarra Jirrbal,-17.6805349,145.3898073
1018,Buluguyban,-18.70838064,146.5624231
1019,Mulgu,-18.73410217,146.6225013
1020,Coonambella,-19.26511928,146.8178661
1021,Marrett River language,-14.39361979,144.1741964
1022,Mbarmburmu,,
1023,China Camp,-16.0474928,145.2994583
1024,Gugu Dyilin,,
1025,Ngadhugudi,-12.07837678,142.348612
1026,Guluy,-16.9352372,145.4465643
1027,Kuku Jakandji,-16.64967605,145.2106641
1028,Nyagali,-16.54825168,145.4523234
1029,Kuku Yalaja,-16.12092947,144.543199
1030,Wulbura,,
1031,Wanyurr,,
1032,Dhalundhirr,-15.25382758,145.2801035
1033,Waguurrga,-15.11327397,144.9245631
1034,Kuuku I'yu,-12.18816081,142.8796712
1035,Itinadyana,-12.12634002,142.6539036
1036,Kuuku Yani,-13.92162847,143.4314962
1037,Ogh Igadj,-16.4025509,142.1574209
1038,Wik Iyanh,-14.42989537,141.9374704
1039,Wik-keyangan,-14.18951373,141.9054416
1040,Kugu Mangk,,
1041,Kugu Ugbanh,-14.50799035,141.6346644
1042,Kugu Uwanh,-14.55886718,141.6512973
1043,Kugu Yi'anh,-14.4866989,141.6549121
1044,Wantjika,,
1045,Ulwawadjana,,
1046,Nhawalgaba,-19.23526771,146.7890513
1047,Western Ayapathu,,
1048,Atampaya,-11.58484929,142.32873
1049,Uradhi,-11.89059638,142.1590698
1050,Awngthim,-12.71153742,141.8212879
1051,Mpakwithi,-12.28402216,141.9331705
1052,Mutyanthi,-11.91654153,142.7867337
1053,Kokiny,-16.47566056,141.5859365
1054,Nggerikudi,-12.15351046,141.7946221
1055,Yumukuntyi,-10.91494119,142.4647584
1056,Gudang,-10.8672763,142.5878907
1057,Andooyomo,-10.93801398,142.6072785
1058,Uyungkuthi,-12.08356412,142.6556984
1059,Utyangikwathiya,-11.89222579,142.4721105
1060,Rimanggudinhma,-14.48683794,143.7825099
1061,Ogh Angkula,,
1062,Ogh Ikarranggal,-14.63339861,143.9418823
1063,Ogh Alungul,-14.68081463,144.0763313
1064,Kalaw Kawaw Ya,-9.352026426,142.4788069
1065,Anguthimri,-12.37773248,141.8360942
1066,Kuuk Yak,-14.87718352,141.7315653
1067,Ogh Awarrangg,-16.07308251,143.0043795
1068,Ndrangith,,
1069,Koko Babangk,-15.81580944,141.4834198
1070,Koko Beberam,,
1071,Ndwa'ngith,,
1072,Ogh Undjan,-16.26565872,142.3917565
1073,Uw El,-15.1455139,141.8282078
1074,Uw Olem,,
1075,Kok Wap,-15.39514198,141.7235417
1076,Nyuwathayi,-12.40891,142.3131682
1077,Kirka,-14.93100124,141.6657473
1078,Di:ru,,
1079,Uutaalnganu,-13.09902781,143.3406053
1080,Thayem,,
1081,Ungan,,
1082,Yirrk Thangalkl,-15.30127415,141.6169403
1083,Kuuk Thaayunth,-14.95261902,141.6461667
1084,Ngaygungu,-17.38531233,145.3758549
1085,Koko-koko,,
1086,Cleveland Bay,-19.29346841,146.8647646
1087,Alodja,-15.67874206,144.8255754
1088,Kuuku Ya'u,-12.5417412,143.033874
1089,Biyay,-18.57749809,146.2353049
1090,Kokoberrin,,
1091,Kugu Mu'inh,-14.64749954,141.6397829
1092,Wudjar,,
1093,Daru,,
1094,Ithu,,
1095,Adithinngithigh,-12.92422851,141.7113879
1096,Wimaranga,-12.37987715,141.6867406
1097,Muragan,,
1098,Yaraytyana,-11.0918207,142.7056851
1099,Yatay,-10.68308939,142.6240919
1100,Wakaman,-17.21045196,144.5984228
1101,Dulgubarra Mamu,,
1102,Yintyingka,,
1103,Athina,,
1104,Injinoo Ikya,,
1105,Mabuyag,,
1106,Thaynakwith,-12.55815284,141.9324279
1107,Mpalitjanh,-12.10232991,142.2781567
1108,Linngithigh,-13.17296567,141.8218545
1109,Ntrwa'ngayth,-13.10072683,141.6381249
1110,Ungawangadi,-12.64910858,142.0623192
1111,Yinwum,-12.70040974,142.7245727
1112,Meriam Mir,-9.683089798,143.7754251
1113,Ladamngid,-12.88308807,141.8329821
1114,Mamangathi,-12.55515981,141.9866216
1115,Alngith,-12.64363253,141.926719
1116,Gudjandju,,
1117,Aritinngithigh,-12.95184098,141.9332017
1118,Ngkoth,-12.82760222,142.0521322
1119,Trotj,-12.75093777,142.4058507
1120,Yanganyu,,
1121,Ntra'ngith,-12.50209993,142.1093217
1122,Kulkalgaw Ya,-9.941779927,143.0394399
1123,Ndorndorin,,
1124,Mbiywom,-12.96826008,142.1704056
1125,Andjingith,,
1126,Kugu Muminh,-14.42062789,141.6509863
1127,Kaanju,-13.39809629,142.9719833
1128,Umpila,-13.64420087,143.4314357
1129,Wik Adinda,-13.49280534,141.6108081
1130,Wik Paach,-13.34556703,141.6732686
1131,Wik Ompom,-13.34418919,142.0863252
1132,Wik Elken,-13.71738214,141.5995202
1133,Kawalgaw Ya,-10.64328526,142.2142855
1134,Umpithamu,-14.03556835,143.4488543
1135,Wik Ngatharr,-13.75387196,141.6079342
1136,Wik Epa,-13.8954436,141.7887661
1137,Wik Me'anh,-14.0117755,141.9278174
1138,Wik Ngathan,-14.06433131,141.6478689
1139,Morrobolam,-14.25190712,143.5349596
1140,Wik Ngathanya,,
1141,Wik Mungkan,-13.72268182,142.326255
1142,Kugu Nganhcara,-14.48978103,141.7921889
1143,Djagaraga,-10.81626591,142.5203416
1144,Ayapathu,-14.41851388,143.2399247
1145,Flinders Island,-14.27558777,144.3889156
1146,Ama Ambilmungu,,
1147,Jugaiwadha,,
1148,Barrow Point,-14.47597716,144.5944398
1149,Pakanh,-14.59143707,142.3477301
1150,Aghu Tharnggala,-14.92265906,144.1358312
1151,Wurangung,-14.59994042,143.5668774
1152,Flinders Island language,,
1153,Baraban,,
1154,Kuuk Thaayorre,-14.90901099,141.7870148
1155,Angkamuthi,-11.31446324,142.2941582
1156,Yuwula,,
1157,Gugu Rarmul,-14.76750144,144.1096839
1158,Yir Yoront,-15.12573754,141.712047
1159,Uw Olkola,-15.34793754,142.6986428
1160,Gugu Yawa,-15.38018988,144.0313789
1161,A'ragu,,
1162,Gwandera,,
1163,Kuku Yalanji,-16.49744785,144.6293752
1164,Guugu-nyiguudyi,-14.65363736,144.784569
1165,Yadhaykenu,-11.48377597,142.7257516
1166,Kuku-warra,-15.09403241,144.6122611
1167,Kuku Walandja,,
1168,Guugu Yimithirr,-15.08521754,144.9427946
1169,Kunjen,-15.72381603,142.654334
1170,Kuku Thaypan,-14.66031799,143.9143389
1171,Koko Bera,-15.6349181,141.6206186
1172,Kuku Bididji,-15.74881043,144.9973297
1173,Kuku Buyunji,-16.21934348,145.3424799
1174,Banambila,,
1175,Kuku Tungay,-16.01665993,145.3479216
1176,Kuku Nyungkul,-15.75029437,145.2513211
1177,Gonaniin,,
1178,Kuku Yanyu,,
1179,Koko Dhawa,-16.05090054,141.8061533
1180,Kuku Mini,-16.05329713,143.4613254
1181,Kutjal,-17.31200751,143.2209542
1182,Gugu Jan,,
1183,Muluridji,-17.11856796,145.3498346
1184,Kuku Waldja ,-16.22631865,145.0767116
1185,Kuku Yalanyu,,
1186,Wik Totjan,,
1187,Lake Macquarie language,,
1188,Kuringgai,-33.4064832,151.3342223
1189,Wagaman,,
1190,Wajuk,-31.98148943,116.1239043
1191,Yuwaalaraay,-29.31314852,148.2755346
1192,Mantjintjarra,-27.25385788,126.0846168
1193,Manyjilyjarra,-22.57376173,124.9062456
1194,Ju'una,-22.00076296,119.4554131
1195,Kriol,,
1196,Ngurawala,,
